     2.11           OBSERVATION DATA    G (GPS)             RINEX VERSION / TYPE
teqc  2016Feb12     UNAVCO Archive Ops  20160225 03:54:20UTCPGM / RUN BY / DATE
Solaris x86 5.10|AMD64|cc SC5.8 -xarch=amd64|=+|=+          COMMENT
BIT 2 OF LLI FLAGS DATA COLLECTED UNDER A/S CONDITION       COMMENT
GLS1                                                        MARKER NAME
                                                            MARKER NUMBER
David Simpson       IRIS                                    OBSERVER / AGENCY
5105K73476          TRIMBLE NETR9       4.61:b57            REC # / TYPE / VERS
60178002            TRM41249.00     NONE                    ANT # / TYPE
  1763793.3081 -1846359.1023  5827457.6470                  APPROX POSITION XYZ
        0.0000        0.0000        0.0000                  ANTENNA: DELTA H/E/N
     1     1                                                WAVELENGTH FACT L1/2
     7    L1    L2    C1    P2    P1    S1    S2            # / TYPES OF OBSERV
    30.0000                                                 INTERVAL
    17                                                      LEAP SECONDS
input file: gls1201602240000.tgd                            COMMENT
RINEX file created by UNAVCO GPS Archive.                   COMMENT
For more information contact archive@unavco.org             COMMENT
Monument ID: 23430                                          COMMENT
UNAVCO 4-char name:   GLS1                                  COMMENT
4-char name from Log or data file: GLS1                     COMMENT
Monument location: 66.4793959439 -46.3101516098 2150        COMMENT
Visit ID: 106319                                            COMMENT
End of DB comments                                          COMMENT
 SNR is mapped to RINEX snr flag value [0-9]                COMMENT
  L1 & L2: min(max(int(snr_dBHz/6), 0), 9)                  COMMENT
  2016     2    24     0     0    0.0000000     GPS         TIME OF FIRST OBS
                                                            END OF HEADER
 16  2 24  0  0  0.0000000  0 10G08G30G21G05G16G09G27G26G07G20
 117559652.376 7  91604940.47445  22370854.820    22370860.594
        46.700          31.600
 125394851.655 7  97710319.03743  23861844.664    23861850.672
        42.400          22.500
 120633780.088 7  94000345.88744  22955840.023    22955842.984
        42.500          29.500
 130326637.476 7 101553244.98343  24800338.875    24800342.363
        42.700          22.200
 111101676.993 8  86572850.31046  21141959.742    21141962.000
        49.900          37.100
 126085421.011 6  98248288.67443  23993229.656    23993235.781
        40.800          22.500
 108532412.383 8  84570688.55246  20653009.125    20653012.848
        51.800          41.300
 122047248.202 7  95101718.36844  23224806.359    23224814.594
        43.800          28.300
 114600677.673 7  89299269.70945  21807777.297    21807779.789
        47.900          35.200
 123886759.539 7  96535179.35243  23574868.094    23574870.117
        42.300          22.300
 16  2 24  0  0 30.0000000  0 10G08G30G21G05G16G09G27G26G07G20
 117466762.232 7  91532558.80345  22353177.625    22353183.809
        46.000          31.400
 125295128.763 7  97632613.01543  23842868.422    23842873.258
        42.000          23.600
 120656303.316 7  94017896.94045  22960126.789    22960127.641
        42.600          30.700
 130395949.668 7 101607254.47143  24813528.250    24813531.738
        42.300          21.800
 111169461.859 8  86625669.59946  21154858.773    21154861.676
        49.200          37.100
 126176919.302 6  98319586.06543  24010640.469    24010647.941
        40.500          22.600
 108493349.083 8  84540249.85847  20645575.461    20645579.594
        51.500          42.000
 122149791.897 7  95181622.48744  23244321.539    23244327.664
        44.100          28.900
 114542721.617 8  89254109.17745  21796749.508    21796752.059
        48.500          34.700
 123882497.672 6  96531858.88043  23574056.141    23574058.281
        41.700          22.800
 16  2 24  0  1  0.0000000  0 10G08G30G21G05G16G09G27G26G07G20
 117374191.061 7  91460425.52545  22335561.664    22335567.965
        45.700          31.500
 125195679.968 6  97555120.52943  23823943.727    23823949.031
        41.700          22.900
 120679313.709 7  94035826.18445  22964505.484    22964507.449
        44.100          30.000
 130465702.302 7 101661607.18143  24826799.664    24826805.672
        43.400          21.500
 111237668.051 8  86678817.11146  21167838.484    21167841.035
        49.400          38.000
 126268727.894 6  98391125.28243  24028111.414    24028118.477
        40.000          22.300
 108454834.608 8  84510238.36946  20638245.813    20638250.531
        50.900          41.800
 122252549.690 7  95261693.34844  23263874.805    23263881.398
        43.800          27.900
 114485273.756 8  89209344.51545  21785817.820    21785820.664
        49.100          34.700
 123878850.033 7  96529016.83344  23573363.219    23573365.418
        42.900          24.100
 16  2 24  0  1 30.0000000  0 10G08G30G21G05G16G09G27G26G07G20
 117281940.798 7  91388541.96345  22318006.078    22318013.375
        44.900          31.100
 125096508.236 7  97477843.97344  23805071.727    23805077.441
        42.100          26.500
 120702816.248 7  94054140.64445  22968977.602    22968979.332
        44.700          30.500
 130535893.844 6 101716301.97243  24840158.625    24840162.641
        41.700          20.600
 111306293.886 8  86732291.54846  21180897.336    21180900.180
        48.800          37.400
 126360844.425 6  98462904.59043  24045640.109    24045648.344
        40.400          22.300
 108416871.576 8  84480656.95246  20631022.219    20631026.059
        51.500          41.600
 122355520.382 7  95341930.20644  23283469.594    23283476.422
        42.600          28.300
 114428336.998 7  89164978.46045  21774980.695    21774985.121
        47.800          35.000
 123875817.603 7  96526654.32643  23572784.836    23572787.504
        42.000          22.200
 16  2 24  0  2  0.0000000  0 10G08G30G21G05G16G09G27G26G07G20
 117190014.254 7  91316911.11145  22300514.188    22300520.020
        45.600          32.100
 124997615.297 6  97400784.66444  23786253.461    23786259.117
        41.200          26.400
 120726805.103 7  94072833.35045  22973543.922    22973544.480
        44.100          31.200
 130606521.187 6 101771336.45643  24853596.672    24853602.211
        41.600          20.400
 111375338.200 8  86786092.43746  21194035.273    21194038.469
        48.800          36.600
 126453265.086 6  98534921.11843  24063227.586    24063234.531
        40.200          22.000
 108379459.241 8  84451504.57546  20623902.531    20623906.605
        50.900          41.900
 122458701.059 7  95422330.62944  23303105.250    23303111.434
        42.500          26.800
 114371911.580 7  89121010.69645  21764242.477    21764248.367
        47.600          34.800
 123873399.502 6  96524770.46643  23572324.875    23572327.016
        41.800          22.200
 16  2 24  0  2 30.0000000  0 11G08G30G21G05G16G09G27G26G07G18G20
 117098413.337 7  91245534.02545  22283083.742    22283087.758
        46.600          32.600
 124899004.859 6  97323945.50644  23767488.172    23767493.652
        41.300          26.700
 120751281.715 7  94091906.08445  22978200.305    22978202.445
        44.500          30.900
 130677582.403 7 101826708.83643  24867119.727    24867124.270
        42.200          18.600
 111444800.097 8  86840218.97846  21207254.266    21207256.055
        49.200          36.900
 126545987.102 6  98607172.15543  24080872.883    24080877.777
        39.400          22.200
 108342599.913 8  84422783.29046  20616887.797    20616893.102
        50.800          41.400
 122562091.065 7  95502894.08144  23322780.000    23322785.773
        43.000          27.700
 114316000.910 8  89077443.94045  21753605.664    21753608.684
        48.800          35.500
 132297288.16515                  25175333.484
        32.900
 123871597.431 6  96523366.78743  23571980.984    23571983.945
        41.600          23.200
 16  2 24  0  3  0.0000000  0 11G08G30G21G05G16G09G27G26G07G18G20
 117007138.981 7  91174411.38545  22265714.094    22265719.340
        46.600          32.700
 124800678.528 6  97247327.74744  23748777.711    23748782.898
        41.400          26.600
 120776244.016 7  94111357.13544  22982951.023    22982952.695
        44.600          29.500
 130749074.451 6 101882417.04043  24880724.133    24880728.969
        40.200          18.300
 111514676.316 8  86894668.20045  21220551.164    21220553.129
        48.700          35.900
 126639007.210 6  98679655.45243  24098573.164    24098578.762
        39.400          20.900
 108306292.348 8  84394491.54346  20609979.391    20609983.230
        51.300          41.600
 122665688.161 7  95583619.04744  23342493.500    23342499.801
        42.600          27.600
 114260606.414 8  89034279.43845  21743064.648    21743067.609
        48.800          34.900
 132217396.51215                  25160132.828
        33.200
 123870409.793 6  96522441.59943  23571754.891    23571757.852
        40.900          22.300
 16  2 24  0  3 30.0000000  0 11G08G30G21G05G16G09G27G26G07G18G20
 116916193.626 7  91103544.94645  22248408.953    22248413.086
        46.400          31.700
 124702639.563 6  97170933.90044  23730121.508    23730126.109
        40.700          26.800
 120801692.504 7  94131186.94445  22987794.211    22987795.531
        44.600          30.400
 130820995.228 7 101938459.23243  24894410.852    24894414.691
        42.100          18.600
 111584966.402 7  86949439.96346  21233924.508    21233929.051
        47.900          36.100
 126732323.517 6  98752369.77843  24116331.578    24116335.594
        39.900          22.500
 108270539.550 8  84366632.40646  20603176.586    20603179.430
        51.300          41.800
 122769490.743 7  95664503.95144  23362246.281    23362252.641
        43.400          27.700
 114205730.736 8  88991519.15645  21732620.578    21732624.828
        48.200          34.700
 132137729.86715                  25144971.594
        33.500
 123869837.601 6  96521995.85343  23571644.867    23571648.766
        40.700          22.900
 16  2 24  0  4  0.0000000  0 11G08G30G21G05G16G09G27G26G07G18G20
 116825579.081 7  91032936.30045  22231164.008    22231169.723
        46.500          32.600
 124604890.100 6  97094765.57844  23711520.438    23711525.684
        41.200          25.800
 120827624.421 7  94151392.99044  22992727.305    22992729.797
        43.300          29.700
 130893341.493 6 101994832.88542  24908176.922    24908182.520
        41.700          17.400
 111655667.879 8  87004532.08845  21247378.672    21247382.336
        48.300          35.800
 126825932.009 6  98825311.67943  24134143.563    24134148.867
        38.800          21.700
 108235340.962 8  84339204.99646  20596477.109    20596481.477
        51.100          41.600
 122873496.748 7  95745547.23944  23382039.352    23382045.242
        44.400          26.700
 114151376.045 8  88949164.91946  21722277.867    21722280.828
        48.700          36.100
 132058289.93815                  25129854.031
        34.100
 123869881.045 7  96522029.88543  23571654.516    23571656.539
        42.200          22.300
 16  2 24  0  4 30.0000000  0 11G08G30G21G05G16G09G27G26G07G18G20
 116735296.483 7  90962586.06945  22213984.336    22213989.582
        45.300          32.900
 124507432.653 6  97018824.81844  23692973.266    23692980.035
        39.400          25.200
 120854040.423 7  94171976.16945  22997755.625    22997757.941
        44.300          30.200
 130966110.811 6 102051536.21442  24922024.484    24922030.668
        38.400          17.800
 111726778.978 8  87059943.32046  21260912.813    21260914.426
        48.900          37.300
 126919829.476 6  98898478.56043  24152010.969    24152016.742
        38.700          21.100
 108200697.754 8  84312210.46246  20589884.375    20589888.801
        50.800          40.900
 122977705.580 7  95826749.08044  23401869.992    23401875.531
        43.900          27.700
 114097543.652 8  88907217.76146  21712034.070    21712037.441
        48.800          36.400
 131979079.124 5                  25114781.500
        34.800
 123870540.119 6  96522543.65043  23571779.156    23571781.180
        41.400          22.800
 16  2 24  0  5  0.0000000  0 11G08G30G21G05G16G09G27G26G07G18G20
 116645348.712 7  90892496.82145  22196868.031    22196873.863
        46.400          31.300
 124410270.113 6  96943113.84644  23674482.648    23674490.063
        38.900          25.700
 120880940.188 7  94192936.68645  23002874.750    23002877.945
        44.600          30.400
 131039301.346 6 102108567.72943  24935952.266    24935957.570
        41.800          18.300
 111798298.994 8  87115673.41446  21274522.438    21274524.109
        49.100          36.900
 127014013.580 6  98971868.77243  24169933.883    24169939.715
        38.900          22.300
 108166610.128 8  84285648.57846  20583398.242    20583402.023
        51.500          41.600
 123082114.186 7  95908106.28044  23421737.961    23421743.324
        42.800          26.300
 114044235.490 8  88865679.02146  21701889.844    21701892.688
        49.100          36.000
 131900099.532 6                  25099755.547
        36.600
 123871814.913 7  96523537.16743  23572021.609    23572023.867
        42.000          22.800
 16  2 24  0  5 30.0000000  0 11G08G30G21G05G16G09G27G26G07G18G20
 116555737.307 7  90822669.81445  22179814.344    22179820.938
        45.600          31.600
 124313404.706 6  96867634.38444  23656051.742    23656057.340
        40.600          25.800
 120908322.957 7  94214273.76544  23008083.922    23008087.879
        43.600          29.600
 131112910.050 7 102165925.15043  24949960.180    24949964.488
        42.100          18.300
 111870225.750 8  87171720.46346  21288209.266    21288210.879
        49.600          37.300
 127108481.244 6  99045480.03143  24187911.711    24187915.375
        39.200          20.900
 108133079.870 8  84259521.43346  20577017.273    20577021.230
        51.200          41.500
 123186721.243 7  95989618.22544  23441643.633    23441649.172
        43.300          26.100
 113991453.639 8  88824550.46345  21691846.148    21691848.875
        48.900          35.200
 131821353.988 6                  25084770.141
        37.200
 123873705.333 6  96525010.37143  23572381.031    23572383.289
        40.900          22.500
 16  2 24  0  6  0.0000000  0 11G08G30G21G05G16G09G27G26G07G18G20
 116466464.638 7  90753107.17845  22162826.578    22162832.469
        46.000          31.800
 124216838.669 6  96792388.18744  23637675.180    23637680.777
        41.300          26.700
 120936186.417 7  94235985.45944  23013387.914    23013390.699
        43.800          28.900
 131186934.487 6 102223606.58643  24964046.586    24964051.598
        41.800          18.600
 111942556.495 8  87228081.94446  21301973.531    21301975.320
        50.000          37.300
 127203228.845 6  99119309.36343  24205942.242    24205944.793
        39.100          20.600
 108100106.786 8  84233828.52046  20570741.219    20570746.523
        51.300          41.300
 123291524.470 7  96071282.96544  23461587.063    23461593.012
        43.500          26.300
 113939199.441 8  88783832.93246  21681903.086    21681905.578
        49.400          36.900
 131742844.412 6                  25069828.836
        36.500
 123876210.766 6  96526962.67143  23572857.219    23572860.004
        40.600          22.000
 16  2 24  0  6 30.0000000  0 11G08G30G21G05G16G09G27G26G07G18G20
 116377531.529 7  90683808.92345  22145903.914    22145908.809
        47.300          33.200
 124120574.997 6  96717377.57244  23619356.352    23619362.418
        41.700          26.000
 120964531.876 7  94258073.54145  23018781.516    23018783.539
        44.100          30.300
 131261371.100 7 102281608.83143  24978211.977    24978217.574
        42.000          18.300
 112015291.247 8  87284758.42546  21315814.773    21315816.211
        49.600          36.800
 127298253.899 6  99193354.90943  24224024.930    24224028.711
        39.400          21.700
 108067690.863 8  84208569.31046  20564574.117    20564577.547
        51.000          41.200
 123396522.631 7  96153099.57444  23481567.289    23481573.648
        43.000          26.500
 113887474.992 8  88743527.96446  21672058.750    21672063.352
        48.800          36.100
 131664573.775 5                  25054933.852
        35.500
 123879332.153 6  96529394.93043  23573450.406    23573454.656
        40.300          21.700
 16  2 24  0  7  0.0000000  0 11G08G30G21G05G16G09G27G26G07G18G20
 116288939.108 7  90614775.67745  22129045.813    22129049.770
        46.500          32.900
 124024616.126 7  96642604.46044  23601095.523    23601101.707
        42.000          26.800
 120993355.278 7  94280533.37344  23024266.570    23024268.301
        43.900          29.600
 131336218.692 6 102339931.48442  24992455.016    24992460.965
        41.600          17.800
 112088427.124 8  87341747.25746  21329732.000    21329733.262
        49.600          36.600
 127393552.990 6  99267613.88443  24242158.352    24242163.246
        39.300          21.800
 108035832.956 8  84183744.67146  20558511.438    20558515.805
        51.500          41.300
 123501713.946 7  96235066.84244  23501585.531    23501590.719
        44.100          25.700
 113836282.173 8  88703637.18946  21662316.625    21662321.578
        48.600          36.500
 131586544.031 6                  25040086.234
        36.400
 123883069.206 6  96532307.10543  23574161.406    23574165.188
        40.500          21.800
 16  2 24  0  7 30.0000000  0 11G08G30G21G05G16G09G27G26G07G18G20
 116200690.773 7  90546010.38345  22112253.531    22112256.727
        46.600          33.400
 123928965.226 7  96568071.24144  23582894.000    23582898.953
        42.300          26.000
 121022658.590 7  94303367.56444  23029842.852    23029843.703
        43.900          28.900
 131411474.758 6 102398572.49042  25006776.695    25006781.531
        41.200          16.900
 112161963.886 8  87399048.54146  21343725.508    21343727.063
        49.500          36.400
 127489123.310 6  99342083.73843  24260344.984    24260349.117
        38.700          20.600
 108004535.530 8  84159357.02346  20552555.789    20552560.039
        50.200          41.700
 123607097.238 7  96317183.65044  23521640.281    23521644.473
        43.800          27.000
 113785624.892 8  88664164.00945  21652676.406    21652681.301
        48.600          35.500
 131508759.082 6                  25025284.445
        37.100
 123887422.954 6  96535699.87443  23574992.813    23574993.664
        41.900          22.000
 16  2 24  0  8  0.0000000  0 11G08G30G21G05G16G09G27G26G07G18G20
 116112787.415 7  90477513.96745  22095524.750    22095530.641
        46.800          33.000
 123833623.711 7  96493779.10544  23564751.320    23564756.859
        42.500          25.700
 121052436.950 7  94326571.04144  23035509.758    23035509.848
        44.700          29.300
 131487135.167 6 102457528.49142  25021173.719    25021179.199
        37.800          17.800
 112235897.974 8  87456659.31446  21357795.180    21357796.148
        49.000          36.500
 127584962.663 6  99416763.93543  24278582.063    24278587.719
        39.000          21.500
 107973796.880 8  84135404.56047  20546706.398    20546711.469
        51.500          42.000
 123712669.336 7  96399447.52044  23541727.664    23541734.316
        42.000          26.700
 113735503.029 8  88625108.15246  21643139.148    21643143.047
        49.000          36.300
 131431218.333 6 102413935.79952  25010529.719    25010530.277
        37.200          13.900
 123892391.449 6  96539571.64443  23575934.844    23575938.801
        40.100          21.500
 16  2 24  0  8 30.0000000  0 11G08G30G21G05G16G09G27G26G07G18G20
 116025232.794 7  90409289.54645  22078863.109    22078869.469
        45.000          31.600
 123738595.847 7  96419731.44144  23546668.492    23546673.387
        43.500          25.800
 121082692.659 7  94350146.51544  23041266.719    23041268.566
        44.200          28.800
 131563198.800 6 102516798.43443  25035649.250    25035653.266
        36.500          18.600
 112310230.233 8  87514580.56645  21371938.523    21371941.309
        48.100          35.900
 127681067.839 6  99491650.97743  24296869.148    24296875.332
        38.200          21.700
 107943619.403 8  84111889.22846  20540964.125    20540968.668
        50.600          41.800
 123818430.281 7  96481858.56544  23561853.703    23561859.594
        42.300          26.400
 113685919.623 8  88586471.79746  21633704.773    21633707.734
        49.000          36.400
 131353924.031 6 102353704.23842  24995821.250    24995822.922
        36.400          15.600
 123897976.452 6  96543924.07043  23576998.430    23577001.039
        41.600          22.000
 16  2 24  0  9  0.0000000  0 11G08G30G21G05G16G09G27G26G07G18G20
 115938025.970 7  90341335.95745  22062269.070    22062274.258
        45.500          33.300
 123643882.010 7  96345928.49344  23528644.414    23528650.129
        43.100          26.200
 121113422.438 7  94374091.03044  23047115.242    23047117.441
        45.300          29.100
 131639661.727 6 102576379.80342  25050199.461    25050204.180
        39.000          15.600
 112384956.232 7  87572808.58745  21386159.242    21386161.500
        47.900          35.900
 127777433.469 6  99566740.55843  24315208.516    24315213.059
        38.400          21.700
 107914002.619 8  84088811.18746  20535329.906    20535333.395
        51.800          41.700
 123924375.987 7  96564413.52544  23582015.492    23582020.855
        42.900          27.300
 113636874.737 8  88548255.05246  21624372.219    21624374.477
        48.300          36.900
 131276885.524 6 102293674.91942  24981162.664    24981164.922
        38.100          14.800
 123904175.518 6  96548754.89743  23578177.609    23578180.219
        41.300          22.800
 16  2 24  0  9 30.0000000  0 11G08G30G21G05G16G09G27G26G07G18G20
 115851170.071 7  90273656.20245  22045739.898    22045746.199
        45.200          33.200
 123549485.247 7  96272372.67044  23510681.492    23510688.027
        43.200          27.900
 121144628.103 7  94398407.19944  23053053.602    23053055.156
        44.500          28.500
 131716521.497 6 102636270.36642  25064825.234    25064829.543
        38.100          15.600
 112460075.039 7  87631342.76446  21400454.484    21400455.863
        47.200          36.100
 127874059.198 6  99642033.59943  24333597.320    24333600.984
        40.200          21.100
 107884946.641 8  84066170.00146  20529799.266    20529803.867
        51.100          41.600
 124030505.589 7  96647111.90244  23602210.883    23602216.949
        42.400          27.100
 113588370.468 8  88510459.49446  21615141.906    21615144.750
        48.600          36.300
 131200099.637 6 102233842.37842  24966551.000    24966552.379
        39.100          17.400
 123910988.511 7  96554063.86143  23579475.125    23579476.680
        42.500          22.500
 16  2 24  0 10  0.0000000  0 11G08G30G21G05G16G09G27G26G07G18G20
 115764668.125 7  90206252.60745  22029279.453    22029285.109
        45.200          32.800
 123455409.302 7  96199066.79044  23492778.828    23492785.070
        43.900          28.200
 121176309.108 7  94423094.66244  23059082.719    23059083.219
        44.600          29.000
 131793776.125 5 102696468.43242  25079526.320    25079530.805
        34.600          16.300
 112535586.244 7  87690182.74646  21414823.242    21414825.207
        47.400          36.000
 127970940.900 6  99717525.57943  24352035.094    24352036.824
        39.600          21.700
 107856453.679 8  84043967.68046  20524377.242    20524381.961
        51.100          41.700
 124136818.556 6  96729953.28344  23622440.203    23622448.086
        41.000          25.600
 113540409.821 8  88473087.49346  21606015.172    21606018.309
        48.700          37.000
 131123569.245 6 102174208.34642  24951985.750    24951988.828
        39.100          16.300
 123918417.193 7  96559852.67843  23580888.578    23580890.191
        42.700          22.800
 16  2 24  0 10 30.0000000  0 11G08G30G21G05G16G09G27G26G07G18G20
 115678520.446 7  90139125.05945  22012884.422    22012891.074
        44.600          34.200
 123361656.072 7  96126012.38444  23474938.914    23474944.980
        44.200          27.800
 121208461.666 7  94448149.06144  23065200.367    23065200.867
        44.300          29.000
 131871423.002 5 102756972.28142  25094300.516    25094307.461
        35.200          16.300
 112611487.151 8  87749326.31446  21429267.859    21429269.063
        48.400          36.900
 128068075.764 6  99793214.85543  24370517.820    24370521.191
        39.100          20.900
 107828523.073 8  84022203.38247  20519062.641    20519067.066
        51.900          42.500
 124243312.120 6  96812935.28944  23642703.430    23642713.133
        40.300          24.600
 113492994.345 8  88436140.26946  21596992.523    21596995.602
        48.100          36.600
 131047297.281 6 102114775.86642  24937471.703    24937474.781
        38.800          15.600
 123926460.153 7  96566120.08544  23582418.453    23582420.594
        42.100          24.600
 16  2 24  0 11  0.0000000  0 10G08G30G21G16G09G27G26G07G18G20
 115592729.390 7  90072275.27145  21996560.438    21996566.035
        45.000          32.000
 123268228.629 7  96053211.85344  23457159.492    23457166.262
        44.500          27.500
 121241085.439 7  94473570.03944  23071407.242    23071410.262
        44.300          29.600
 112687776.465 8  87808772.54045  21443784.414    21443786.789
        48.400          35.900
 128165461.736 6  99869099.99243  24389048.516    24389054.172
        36.800          20.400
 107801157.445 8  84000879.99046  20513855.156    20513858.879
        51.400          41.500
 124349984.876 6  96896056.80543  23663002.820    23663011.758
        39.900          23.600
 113446126.034 8  88399619.38846  21588074.773    21588077.148
        49.400          37.700
 130971287.004 6 102055547.60542  24923007.820    24923010.430
        39.900          17.400
 123935117.846 7  96572866.49043  23584065.289    23584068.777
        42.300          23.900
 16  2 24  0 11 30.0000000  0 10G08G30G21G16G09G27G26G07G18G20
 115507296.667 7  90005704.45145  21980301.922    21980308.516
        45.300          34.100
 123175129.834 7  95980667.41744  23439444.414    23439450.305
        44.700          27.500
 121274180.161 7  94499358.10844  23077705.258    23077707.516
        45.600          28.700
 112764453.100 8  87868520.43345  21458375.922    21458377.008
        48.700          35.800
 128263095.329 6  99945177.89143  24407627.250    24407633.316
        37.000          20.900
 107774356.053 8  83979996.08146  20508754.953    20508758.910
        51.600          41.800
 124456835.321 6  96979316.62144  23683338.063    23683345.535
        40.200          26.300
 113399807.400 8  88363526.78246  21579259.844    21579262.219
        48.700          36.500
 130895539.428 6 101996523.44542  24908592.164    24908595.594
        40.200          16.300
 123944390.348 6  96580091.92743  23585828.883    23585832.371
        41.600          21.700
 16  2 24  0 12  0.0000000  0 10G08G30G21G16G09G27G26G07G18G20
 115422223.331 7  89939413.58045  21964112.289    21964119.117
        45.100          33.600
 123082361.217 7  95908380.24144  23421791.570    23421796.289
        45.000          27.900
 121307743.843 7  94525504.68654  23084093.328    23084094.121
        44.700          28.700
 112841514.199 8  87928567.95146  21473040.625    21473041.477
        49.200          36.100
 128360973.316 5 100021446.47343  24426250.203    24426258.730
        33.900          18.600
 107748117.747 8  83959550.54746  20503761.180    20503766.074
        51.500          41.600
 124563861.174 6  97062713.16544  23703702.867    23703711.453
        40.200          24.500
 113354038.690 8  88327862.75046  21570549.055    21570553.480
        48.400          37.000
 130820056.614 6 101937705.35942  24894229.859    24894232.117
        41.100          17.400
 123954276.068 7  96587795.02243  23587710.156    23587713.938
        42.300          22.900
 16  2 24  0 12 30.0000000  0 10G08G30G21G16G09G27G26G07G18G20
 115337511.801 7  89873404.58945  21947992.398    21947998.641
        46.700          33.700
 122989925.729 7  95836352.60144  23404201.250    23404206.027
        45.400          28.300
 121341775.682 7  94552022.65544  23090568.336    23090570.770
        45.200          28.900
 112918959.054 8  87988914.69145  21487777.906    21487779.461
        48.300          35.800
 128459092.991 5 100097903.52443  24444922.977    24444929.219
        34.800          18.600
 107722445.005 8  83939545.99647  20498875.102    20498880.348
        51.900          42.100
 124671061.179 6  97146245.52144  23724104.094    23724111.742
        40.700          25.300
 113308822.593 8  88292629.41046  21561947.359    21561949.148
        48.600          37.300
 130744842.547 6 101879096.76443  24879916.719    24879919.504
        40.200          19.000
 123964775.802 7  96595976.59243  23589709.398    23589711.891
        42.100          23.000
 16  2 24  0 13  0.0000000  0 10G08G30G21G16G09G27G26G07G18G20
 115253163.726 7  89807678.79945  21931942.484    21931947.379
        45.300          33.500
 122897825.805 7  95764586.50844  23386674.234    23386679.949
        43.600          27.400
 121376274.812 7  94578904.89544  23097134.828    23097136.090
        44.200          29.200
 112996783.869 8  88049556.97646  21502587.352    21502589.727
        48.300          36.100
 128557450.806 5 100174546.20443  24463639.898    24463646.316
        35.100          18.600
 107697336.522 8  83919980.68546  20494097.320    20494102.566
        50.000          41.300
 124778433.306 6  97229912.06144  23744535.063    23744543.883
        39.800          24.900
 113264160.419 8  88257827.67246  21553448.695    21553449.898
        49.800          37.700
 130669897.464 6 101820697.21542  24865655.305    24865657.738
        39.400          17.400
 123975888.632 7  96604636.06843  23591824.789    23591825.523
        42.700          22.500
 16  2 24  0 13 30.0000000  0 10G08G30G21G16G09G27G26G07G18G20
 115169180.591 7  89742237.32945  21915960.992    21915966.590
        45.600          34.200
 122806063.895 7  95693083.69944  23369212.773    23369218.664
        43.600          26.900
 121411241.818 7  94606152.58244  23103787.000    23103789.492
        44.000          28.000
 113074989.427 7  88110496.56945  21517469.930    21517470.840
        47.500          35.500
 128656043.729 5 100251372.01843  24482401.906    24482406.859
        34.600          19.900
 107672793.796 8  83900856.33146  20489427.758    20489432.359
        50.600          41.700
 124885975.942 6  97313711.56344  23765000.430    23765008.957
        40.800          25.300
 113220054.133 8  88223459.18146  21545054.430    21545057.039
        48.400          37.300
 130595226.346 6 101762511.91543  24851445.789    24851448.809
        40.000          18.300
 123987614.111 6  96613772.89743  23594053.859    23594056.352
        41.200          22.300
 16  2 24  0 14  0.0000000  0 10G08G30G21G16G09G27G26G07G18G20
 115085564.523 7  89677081.99345  21900049.070    21900055.078
        46.200          33.800
 122714642.715 7  95621846.51744  23351816.391    23351821.988
        44.000          27.200
 121446671.198 7  94633759.44144  23110528.750    23110532.531
        43.800          28.900
 113153572.285 7  88171730.01045  21532422.266    21532424.816
        46.500          35.500
 128754868.122 6 100328377.95943  24501208.813    24501213.297
        36.400          21.300
 107648817.018 8  83882172.97847  20484864.758    20484870.531
        51.000          42.300
 124993686.762 6  97397642.03444  23785497.211    23785505.270
        40.400          25.200
 113176505.501 7  88189525.43346  21536766.617    21536769.930
        47.900          37.300
 130520830.568 6 101704541.30743  24837289.898    24837291.688
        40.900          20.100
 123999951.994 6  96623386.84143  23596401.977    23596404.527
        41.800          22.000
 16  2 24  0 14 30.0000000  0 10G08G30G21G16G09G27G26G07G18G20
 115002317.506 7  89612214.43345  21884208.844    21884213.738
        46.600          33.700
 122623564.579 7  95550876.59544  23334484.039    23334490.926
        42.600          26.200
 121482565.299 7  94661728.69044  23117358.875    23117362.773
        43.700          27.900
 113232531.819 7  88233257.18445  21547448.734    21547449.527
        47.100          35.600
 128853921.656 5 100405562.54043  24520057.070    24520063.137
        35.400          20.400
 107625406.671 8  83863931.07047  20480410.703    20480415.305
        49.500          42.000
 125101564.317 6  97481702.45144  23806026.898    23806033.727
        40.600          25.800
 113133516.096 8  88156027.58046  21528587.273    21528589.063
        48.600          36.300
 130446712.738 6 101646787.46143  24823185.617    24823189.340
        39.900          19.600
 124012901.842 6  96633477.58643  23598866.188    23598868.855
        41.100          21.800
 16  2 24  0 15  0.0000000  0 11G08G30G21G13G16G09G27G26G07G18G20
 114919441.412 7  89547636.07245  21868436.734    21868442.098
        46.300          34.200
 122532832.392 7  95480176.30244  23317217.930    23317225.285
        42.700          25.600
 121518922.733 7  94690059.41444  23124276.289    23124280.832
        42.400          27.500
 131344038.54916 102345838.72052  24993893.500    24993899.391
        36.400          14.800
 113311865.572 7  88295075.76445  21562545.555    21562546.172
        47.900          35.500
 128953201.180 5 100482923.18543  24538949.492    24538955.207
        35.400          21.800
 107602563.004 8  83846130.60747  20476065.227    20476069.008
        51.200          42.200
 125209607.056 6  97565891.62744  23826586.469    23826592.477
        40.100          25.800
 113091086.776 7  88122965.87246  21520511.398    21520514.242
        47.800          36.300
 130372874.105 6 101589250.98343  24809133.766    24809137.020
        39.000          20.400
 124026463.226 6  96644044.92243  23601447.352    23601449.434
        41.100          21.500
 16  2 24  0 15 30.0000000  0 11G08G30G21G13G16G09G27G26G07G18G20
 114836936.687 7  89483346.69945  21852737.711    21852741.844
        46.400          35.000
 122442448.698 7  95409747.53644  23300019.516    23300025.348
        43.200          27.500
 121555741.232 7  94718749.30744  23131286.023    23131287.168
        44.200          28.900
 131253911.100 6 102275609.52442  24976742.742    24976748.340
        36.800          15.600
 113391572.002 7  88357184.60545  21577711.727    21577713.926
        47.600          34.600
 129052704.078 6 100560457.94843  24557884.094    24557890.043
        36.100          20.900
 107580286.959 8  83828772.57647  20471825.266    20471829.047
        51.100          43.000
 125317813.324 6  97650208.19444  23847176.859    23847183.688
        40.200          24.000
 113049220.350 8  88090342.94046  21512544.781    21512546.863
        48.600          36.800
 130299318.123 6 101531934.75843  24795135.391    24795139.289
        38.400          19.300
 124040635.858 6  96655088.55043  23604143.422    23604147.203
        41.100          21.700
 16  2 24  0 16  0.0000000  0 11G08G30G21G13G16G09G27G26G07G18G20
 114754806.139 7  89419348.83745  21837106.977    21837113.512
        46.400          34.300
 122352415.876 7  95339592.14044  23282885.617    23282892.152
        42.800          26.900
 121593020.718 7  94747798.36544  23138380.219    23138381.070
        44.000          28.400
 131164150.989 6 102205667.20642  24959664.289    24959667.543
        37.300          15.600
 113471649.022 7  88419582.11845  21592950.055    21592952.371
        46.800          34.900
 129152426.865 6 100638163.97843  24576860.969    24576866.977
        37.100          21.500
 107558578.791 8  83811857.19847  20467694.375    20467698.039
        51.900          42.100
 125426181.263 6  97734650.77944  23867798.703    23867805.590
        40.800          25.100
 113007918.445 8  88058160.02046  21504684.500    21504687.168
        48.100          37.000
 130226047.151 6 101474840.81743  24781192.609    24781196.742
        39.200          19.600
 124055419.077 7  96666607.96743  23606957.969    23606959.992
        42.000          22.000
 16  2 24  0 16 30.0000000  0 11G08G30G21G13G16G09G27G26G07G18G20
 114673051.818 7  89355644.13345  21821551.148    21821555.809
        45.800          34.200
 122262737.168 7  95269712.72944  23265820.609    23265827.027
        42.700          26.000
 121630760.045 7  94777205.88544  23145560.219    23145562.418
        43.700          28.700
 131074759.126 6                  24942652.555
        37.400
 113552096.129 7  88482268.12645  21608259.352    21608260.496
        47.900          34.500
 129252366.764 6 100716038.95243  24595879.594    24595885.367
        38.400          21.500
 107537439.435 8  83795385.16647  20463671.195    20463675.973
        51.000          42.300
 125534709.231 6  97819217.83743  23888451.305    23888458.367
        40.600          23.500
 112967182.680 8  88026418.14846  21496932.609    21496935.980
        48.100          36.100
 130153063.913 6 101417971.17643  24767303.391    24767307.582
        39.800          20.400
 124070812.820 7  96678603.01743  23609887.125    23609889.676
        42.200          21.800
 16  2 24  0 17  0.0000000  0 11G08G30G21G13G16G09G27G26G07G18G20
 114591674.847 7  89292233.34345  21806064.281    21806070.758
        46.300          35.000
 122173414.467 7  95200110.66044  23248823.172    23248828.418
        43.500          26.200
 121668957.150 7  94806969.68144  23152830.031    23152831.117
        42.900          27.500
 130985739.841 6                  24925712.641
        37.400
 113632911.066 8  88545240.89945  21623637.945    21623639.617
        48.900          34.800
 129352520.397 6 100794080.20943  24614938.641    24614944.590
        38.600          22.200
 107516868.528 8  83779356.13546  20459756.391    20459761.109
        50.000          41.800
 125643395.831 6  97903908.68343  23909133.875    23909141.113
        41.100          22.900
 112927014.155 8  87995118.18946  21489288.461    21489292.125
        48.800          37.200
 130080369.753 6 101361326.53743  24753471.094    24753474.582
        39.700          19.600
 124086816.108 7  96691073.02043  23612932.875    23612934.605
        42.300          22.600
 16  2 24  0 17 30.0000000  0 11G08G30G21G13G16G09G27G26G07G18G20
 114510676.474 7  89229117.55745  21790651.680    21790656.750
        47.800          35.000
 122084449.679 7  95130787.45844  23231892.977    23231898.926
        42.900          25.600
 121707611.215 7  94837090.21944  23160183.531    23160185.789
        43.700          27.600
 130897095.795 6                  24908844.625
        37.900
 113714091.091 8  88608498.12545  21639085.086    21639087.051
        48.100          34.700
 129452885.232 6 100872286.53543  24634037.313    24634043.262
        39.800          21.500
 107496864.969 8  83763768.91147  20455949.695    20455954.648
        50.000          42.600
 125752238.153 6  97988720.84343  23929845.570    23929853.570
        40.200          22.600
 112887414.275 8  87964261.41446  21481752.195    21481755.742
        48.400          36.800
 130007966.852 6 101304908.89343  24739693.813    24739697.008
        39.000          20.400
 124103427.860 7  96704017.11743  23616094.625    23616095.828
        42.800          22.900
 16  2 24  0 18  0.0000000  0 11G08G30G21G13G16G09G27G26G07G18G20
 114430058.801 7  89166298.49845  21775311.188    21775316.316
        46.900          34.800
 121995845.754 7  95061745.45244  23215031.875    23215037.824
        44.000          26.000
 121746719.948 6  94867564.65744  23167625.234    23167628.430
        41.900          26.100
 130808829.476 6                  24892048.008
        39.400
 113795634.480 8  88672038.43345  21654601.953    21654604.445
        48.400          34.700
 129553457.812 6 100950654.80043  24653176.586    24653180.719
        39.500          21.300
 107477430.454 8  83748625.34147  20452251.961    20452256.270
        50.700          42.200
 125861235.241 6  98073653.77443  23950585.469    23950593.645
        38.600          22.500
 112848384.422 8  87933848.71846  21474324.680    21474328.637
        48.700          37.200
 129935858.303 6 101248720.93643  24725970.094    24725973.992
        39.100          20.600
 124120647.703 6  96717434.98543  23619370.758    23619373.074
        41.200          22.500
 16  2 24  0 18 30.0000000  0 11G08G30G21G13G16G09G27G26G07G18G20
 114349824.122 7  89103777.91245  21760041.828    21760048.305
        46.500          34.700
 121907605.653 7  94992986.90244  23198241.766    23198246.426
        44.000          27.500
 121786283.316 7  94898393.23944  23175154.094    23175157.113
        42.100          26.900
 130720944.074 6                  24875321.664
        39.200
 113877540.292 8  88735861.07145  21670189.617    21670191.055
        49.300          35.700
 129654235.717 6 101029183.10143  24672353.875    24672358.418
        40.000          22.000
 107458565.214 8  83733925.29347  20448661.398    20448666.234
        50.600          42.100
 125970385.378 6  98158705.85843  23971358.375    23971364.910
        39.300          23.300
 112809926.805 8  87903881.83946  21467006.352    21467009.957
        48.500          36.400
 129864045.589 6 101192763.11843  24712304.672    24712308.805
        38.800          19.900
 124138475.826 6  96731326.88843  23622763.367    23622766.504
        41.400          22.800
 16  2 24  0 19  0.0000000  0 11G08G30G21G13G16G09G27G26G07G18G20
 114269974.003 7  89041557.04145  21744846.664    21744853.375
        46.400          34.700
 121819731.855 7  94924513.74844  23181519.086    23181525.152
        43.900          27.700
 121826300.673 7  94929575.82844  23182769.570    23182771.359
        42.000          27.000
 130633441.921 6 101792100.56152  24858670.883    24858674.254
        40.500          14.800
 113959806.910 8  88799965.00045  21685844.625    21685846.004
        48.600          34.900
 129755215.402 6 101107868.47043  24691569.117    24691575.008
        39.200          21.500
 107440268.896 8  83719668.24047  20445180.188    20445184.613
        51.300          42.400
 126079686.742 6  98243875.71243  23992156.719    23992164.074
        40.800          22.000
 112772043.004 8  87874362.02445  21459798.266    21459800.816
        49.400          35.700
 129792531.987 6 101137038.49543  24698697.156    24698700.176
        39.300          20.900
 124156911.357 6  96745692.01143  23626271.195    23626274.098
        41.600          21.500
 16  2 24  0 19 30.0000000  0 11G08G30G21G13G16G09G27G26G07G18G20
 114190510.338 7  88979637.27245  21729726.063    21729731.660
        47.300          35.600
 121732227.202 7  94856328.28144  23164868.250    23164873.438
        43.300          27.000
 121866771.055 6  94961111.73544  23190469.883    23190472.961
        41.600          26.600
 130546327.327 7 101724219.54042  24842094.242    24842097.789
        42.100          15.600
 114042432.367 8  88864348.39345  21701566.977    21701569.527
        48.900          34.400
 129856395.125 6 101186710.11243  24710822.727    24710828.969
        38.900          20.100
 107422542.927 8  83705855.81047  20441806.195    20441810.973
        49.900          42.500
 126189138.057 6  98329162.43543  24012985.953    24012991.785
        40.500          22.600
 112734735.093 8  87845291.09346  21452699.391    21452700.828
        49.200          36.600
 129721317.563 6 101081545.82943  24685146.586    24685149.313
        39.200          21.100
 124175953.806 7  96760530.08643  23629895.055    23629898.250
        42.200          22.300
 16  2 24  0 20  0.0000000  0 11G08G30G21G13G16G09G27G26G07G18G20
 114111433.729 7  88918018.92545  21714679.273    21714684.754
        46.800          35.400
 121645093.392 7  94788431.80744  23148287.297    23148292.895
        44.500          26.200
 121907690.036 6  94992996.48544  23198256.320    23198258.695
        41.400          27.100
 130459601.811 7 101656641.65742  24825590.836    24825594.441
        42.600          15.600
 114125414.409 8  88929009.67345  21717357.930    21717360.129
        48.300          34.700
 129957769.870 6 101265703.51443  24730113.719    24730119.668
        39.000          20.600
 107405385.677 8  83692486.20847  20438542.102    20438546.879
        49.900          43.000
 126298736.511 6  98414563.75643  24033841.836    24033848.254
        41.900          22.500
 112698003.225 8  87816668.92046  21445709.063    21445711.086
        49.700          36.100
 129650407.325 6 101026290.88843  24671652.469    24671656.426
        38.400          20.900
 124195601.671 7  96775840.00243  23633636.117    23633637.672
        42.200          22.000
 16  2 24  0 20 30.0000000  0 11G08G30G21G13G16G09G27G26G07G18G20
 114032746.884 7  88856704.46945  21699704.641    21699711.000
        46.500          35.000
 121558333.579 7  94720826.74444  23131776.820    23131782.711
        43.500          27.600
 121949059.303 6  95025232.36244  23206129.141    23206130.988
        41.500          26.900
 130373268.055 6 101589368.83742  24809161.766    24809166.074
        41.700          14.800
 114208751.975 7  88993948.13445  21733215.922    21733218.707
        47.500          33.800
 130059336.625 6 101344846.02243  24749442.641    24749447.477
        39.400          19.000
 107388799.001 8  83679561.41147  20435386.164    20435390.355
        50.000          42.600
 126408481.338 6  98500079.21643  24054725.938    24054732.180
        41.700          22.300
 112661850.025 8  87788497.71445  21438828.914    21438831.055
        48.200          35.900
 129579804.741 6 100971276.61943  24658216.922    24658219.824
        38.600          20.100
 124215854.201 6  96791620.84343  23637488.633    23637491.945
        40.700          22.600
 16  2 24  0 21  0.0000000  0 11G08G30G21G13G16G09G27G26G07G18G20
 113954450.917 7  88795694.24045  21684806.891    21684811.727
        47.300          35.200
 121471950.357 7  94653515.12444  23115339.305    23115344.727
        44.800          28.200
 121990876.692 7  95057817.40944  23214086.484    23214087.570
        42.400          26.700
 130287329.611 7 101522403.93842  24792808.008    24792812.082
        42.500          15.600
 114292442.923 7  89059161.80745  21749141.148    21749143.816
        46.400          34.000
 130161094.070 6 101424137.36643  24768805.586    24768811.301
        38.500          19.600
 107372782.931 8  83667081.29546  20432337.734    20432343.156
        51.000          41.600
 126518370.778 7  98585707.36343  24075636.055    24075642.531
        42.700          22.200
 112626276.915 8  87760778.62646  21432059.758    21432062.191
        48.900          36.900
 129509508.996 6 100916500.64743  24644838.781    24644842.738
        37.800          19.000
 124236712.168 6  96807873.67943  23641457.773    23641460.910
        40.500          22.800
 16  2 24  0 21 30.0000000  0 11G08G30G21G13G16G09G27G26G07G18G20
 113876548.435 7  88734990.86746  21669981.547    21669987.203
        46.700          36.000
 121385946.141 7  94586498.79644  23098974.672    23098978.570
        45.300          29.700
 122033142.322 6  95090752.40944  23222129.016    23222130.570
        41.500          27.000
 130201789.139 7 101455749.01042  24776529.883    24776534.367
        42.600          16.300
 114376485.646 7  89124649.58945  21765134.430    21765136.746
        47.100          33.900
 130263040.040 6 101503576.41243  24788203.383    24788211.090
        39.400          19.000
 107357338.427 8  83655047.04247  20429399.305    20429403.379
        51.100          42.500
 126628403.074 7  98671446.82643  24096576.164    24096580.414
        42.300          21.500
 112591284.833 8  87733512.15046  21425400.406    21425403.250
        48.400          36.600
 129439522.525 6 100861965.02043  24631521.750    24631524.887
        37.800          19.300
 124258173.371 6  96824596.24543  23645543.070    23645544.801
        41.600          22.200
 16  2 24  0 22  0.0000000  0 11G08G30G21G13G16G09G27G26G07G18G20
 113799040.954 7  88674595.88945  21655232.594    21655238.074
        46.900          35.000
 121300322.609 7  94519779.10944  23082681.477    23082685.727
        45.600          29.300
 122075850.554 6  95124031.28644  23230255.352    23230257.551
        41.000          26.500
 130116648.420 7 101389405.59242  24760328.359    24760332.434
        43.000          17.400
 114460877.714 7  89190409.69245  21781194.633    21781196.129
        47.100          33.800
 130365168.078 6 101583156.81542  24807639.023    24807644.504
        39.600          16.900
 107342463.515 8  83643456.52347  20426568.250    20426572.793
        52.200          42.500
 126738575.447 6  98757295.39543  24117539.281    24117545.523
        41.400          22.300
 112556874.726 8  87706699.12446  21418853.680    21418855.176
        48.900          36.700
 129369850.703 6 100807676.08443  24618264.867    24618265.836
        38.200          18.300
 124280236.798 6  96841787.95343  23649740.781    23649744.387
        40.000          21.700
 16  2 24  0 22 30.0000000  0 11G08G30G21G13G16G09G27G26G07G18G20
 113721929.293 7  88614508.78045  21640557.625    21640564.512
        46.400          34.700
 121215084.069 7  94453359.45544  23066458.859    23066465.277
        43.900          27.500
 122119005.090 6  95157658.10744  23238466.531    23238470.605
        40.000          25.200
 130031912.653 7 101323377.90142  24744203.953    24744207.852
        43.300          16.300
 114545618.533 7  89256441.40545  21797319.641    21797321.723
        46.700          33.700
 130467477.687 6 101662878.51642  24827108.828    24827112.844
        38.400          16.900
 107328159.170 8  83632309.97047  20423847.891    20423850.793
        50.100          42.800
 126848887.865 6  98843252.94243  24138531.133    24138537.785
        39.600          21.300
 112523049.833 8  87680342.20146  21412417.227    21412419.016
        48.300          37.300
 129300491.814 6 100753629.58243  24605064.656    24605068.262
        38.000          19.300
 124302902.447 6  96859448.57343  23654054.305    23654058.262
        40.800          21.700
 16  2 24  0 23  0.0000000  0 11G08G30G21G13G16G09G27G26G07G18G20
 113645215.367 7  88554731.85846  21625960.867    21625965.762
        47.600          36.100
 121130231.205 7  94387240.33144  23050311.852    23050317.742
        45.200          28.500
 122162603.365 6  95191631.53044  23246764.164    23246766.598
        40.600          27.000
 129947582.344 7 101257666.02943  24728155.813    24728159.184
        43.900          18.600
 114630704.812 7  89322742.31945  21813512.750    21813513.426
        47.500          34.600
 130569964.776 6 101742738.74742  24846610.797    24846615.281
        37.700          16.900
 107314424.842 8  83621607.55847  20421233.734    20421237.223
        51.300          42.400
 126959337.310 6  98929317.49543  24159549.289    24159555.355
        40.800          21.700
 112489809.465 8  87654440.62546  21406090.180    21406093.375
        48.000          37.100
 129231452.145 5 100699832.93042  24591925.578    24591930.414
        35.000          17.800
 124326168.459 6  96877576.90943  23658482.930    23658486.652
        40.900          22.500
 16  2 24  0 23 30.0000000  0 11G08G30G21G13G16G09G27G26G07G18G20
 113568901.517 7  88495266.79045  21611437.094    21611443.688
        47.600          35.200
 121045767.700 7  94321424.68044  23034238.195    23034245.141
        43.900          27.900
 122206641.422 6  95225946.57444  23255144.039    23255147.586
        41.500          26.800
 129863661.582 7 101192273.36543  24712185.781    24712189.621
        43.700          18.600
 114716136.261 8  89389312.23945  21829769.664    21829771.043
        48.400          34.800
 130672626.880 6 101822735.28742  24866145.313    24866151.145
        36.900          15.600
 107301263.294 8  83611352.34747  20418728.227    20418732.418
        51.600          42.600
 127069922.891 6  99015488.11943  24180592.328    24180599.098
        39.900          20.600
 112457156.166 8  87628996.51046  21399876.383    21399879.402
        48.000          36.700
 129162732.420 5 100646285.43442  24578847.727    24578852.738
        35.000          17.800
 124350035.391 6  96896173.43243  23663025.508    23663029.406
        41.300          22.200
 16  2 24  0 24  0.0000000  0 11G08G30G21G13G16G09G27G26G07G18G20
 113492988.837 7  88436114.24445  21596992.461    21596998.117
        47.500          35.800
 120961696.144 7  94255914.42944  23018241.898    23018246.266
        45.700          28.700
 122251121.207 7  95260606.51444  23263609.219    23263611.125
        42.900          27.400
 129780153.339 7 101127202.02742  24696294.180    24696298.195
        43.100          17.800
 114801910.128 7  89456148.66445  21846091.969    21846093.348
        47.800          34.800
 130775461.545 6 101902866.36242  24885714.578    24885720.293
        37.200          16.300
 107288672.740 8  83601541.80147  20416330.688    20416336.227
        51.200          42.600
 127180642.970 6  99101763.51243  24201662.469    24201668.945
        39.500          22.000
 112425091.855 8  87604011.35646  21393776.102    21393777.832
        48.400          37.700
 129094333.720 6 100592987.73843  24565832.883    24565836.781
        36.300          18.600
 124374503.623 6  96915239.18143  23667681.711    23667686.137
        40.400          20.900
 16  2 24  0 24 30.0000000  0 11G08G30G21G13G16G09G27G26G07G18G20
 113417477.783 7  88377274.15845  21582623.953    21582628.672
        47.900          35.400
 120878018.268 7  94190710.94945  23002319.086    23002323.043
        45.500          30.100
 122296039.768 7  95295608.32044  23272156.977    23272158.531
        43.000          28.200
 129697060.258 7 101062454.61143  24680482.922    24680486.176
        43.800          18.300
 114888025.362 8  89523251.55845  21862477.977    21862480.820
        48.000          34.300
 130878464.262 6 101983128.31042  24905315.398    24905321.289
        36.200          14.800
 107276651.466 8  83592174.05947  20414044.219    20414048.703
        51.600          43.100
 127291495.221 6  99188141.96943  24222757.930    24222763.996
        39.400          22.500
 112393616.933 8  87579485.43746  21387785.070    21387788.441
        48.400          37.600
 129026258.859 5 100539942.52643  24552879.320    24552883.453
        35.800          20.400
 124399569.498 6  96934770.20143  23672452.539    23672455.969
        41.200          21.300
 16  2 24  0 25  0.0000000  0 11G08G30G21G13G16G09G27G26G07G18G20
 113342372.303 8  88318750.71046  21568330.633    21568336.641
        49.000          36.200
 120794736.792 7  94125816.32544  22986469.766    22986475.715
        45.600          29.100
 122341394.881 7  95330949.80844  23280787.688    23280789.945
        43.400          28.600
 129614382.669 7 100998030.12143  24664749.578    24664753.945
        43.100          20.600
 114974479.222 8  89590618.14545  21878929.789    21878932.516
        48.000          34.400
 130981632.528 5 102063519.03342  24924948.391    24924953.813
        35.700          15.600
 107265202.333 8  83583252.65047  20411865.094    20411869.637
        52.100          42.400
 127402478.042 6  99274622.16543  24243876.664    24243882.848
        39.800          22.600
 112362732.703 8  87555419.80346  21381908.750    21381911.125
        48.700          37.700
 128958511.731 6 100487153.18143  24539986.680    24539990.402
        37.000          19.600
 124425234.697 7  96954769.04543  23677335.391    23677341.281
        42.100          22.600
 16  2 24  0 25 30.0000000  0 11G08G30G21G13G16G09G27G26G07G18G20
 113267672.598 7  88260543.34845  21554115.742    21554120.520
        47.600          35.200
 120711854.234 7  94061232.49245  22970699.641    22970703.070
        46.000          30.400
 122387186.844 7  95366632.05144  23289501.453    23289503.711
        42.500          28.900
 129532126.864 7 100933934.77043  24649097.070    24649101.496
        42.300          19.600
 115061270.668 7  89658247.71745  21895445.688    21895448.707
        46.500          33.600
 131084963.729 5 102144036.69842  24944611.680    24944617.043
        35.600          14.800
 107254323.561 8  83574775.29946  20409796.000    20409800.543
        50.500          41.400
 127513589.855 6  99361202.82143  24265020.586    24265026.418
        39.800          22.600
 112332441.010 7  87531815.89846  21376143.516    21376147.473
        47.300          36.800
 128891091.725 6 100434618.06043  24527159.477    24527160.973
        37.500          20.100
 124451495.500 7  96975231.29743  23682334.375    23682337.805
        42.400          22.300
 16  2 24  0 26  0.0000000  0 11G08G30G21G13G16G09G27G26G07G18G20
 113193380.965 8  88202653.81345  21539978.859    21539983.930
        48.900          35.700
 120629374.081 7  93996962.31644  22955003.461    22955007.301
        46.100          29.300
 122433414.243 7  95402653.57844  23298298.594    23298299.973
        43.800          28.000
 129450294.997 7 100870169.72143  24633524.445    24633529.047
        42.800          19.300
 115148397.904 7  89726138.89545  21912024.805    21912028.234
        46.800          32.800
 131188455.686 5 102224679.80542  24964303.891    24964311.012
        34.200          16.300
 107244017.838 8  83566745.02547  20407835.414    20407839.547
        50.800          42.100
 127624829.492 6  99447883.08043  24286188.852    24286195.270
        39.400          22.000
 112302743.687 8  87508675.12846  21370493.656    21370495.855
        48.900          37.400
 128824002.208 6 100382339.94643  24514393.898    24514395.160
        37.200          20.400
 124478352.704 7  96996158.12643  23687446.344    23687449.539
        42.000          21.500
 16  2 24  0 26 30.0000000  0 11G08G30G21G13G16G09G27G26G07G18G20
 113119498.110 8  88145082.88045  21525918.227    21525923.766
        48.500          35.200
 120547297.322 7  93933006.41044  22939383.797    22939389.043
        45.000          29.500
 122480074.603 7  95439012.40644  23307177.805    23307178.539
        44.200          28.100
 129368889.029 7 100806736.75443  24618033.945    24618037.727
        42.800          20.900
 115235858.483 7  89794289.71545  21928670.102    21928671.129
        47.800          34.000
 131292104.014 5 102305444.69242  24984028.398    24984034.523
        33.800          15.600
 107234283.187 8  83559159.92646  20405982.219    20405986.176
        51.700          41.900
 127736194.121 6  99534660.66743  24307380.500    24307387.211
        39.300          22.600
 112273640.885 8  87485997.61946  21364955.453    21364957.770
        48.000          37.400
 128757247.481 6 100330323.90643  24501688.367    24501690.859
        37.400          19.000
 124505805.981 6  97017550.27543  23692670.445    23692674.695
        41.100          22.300
 16  2 24  0 27  0.0000000  0 10G08G30G21G13G16G27G26G07G18G20
 113046026.413 8  88087832.31646  21511937.648    21511942.895
        48.900          36.200
 120465627.471 7  93869367.60745  22923841.320    22923847.328
        45.200          30.000
 122527166.805 7  95475707.72044  23316140.078    23316140.051
